[
  {
    "city": "Aflou",
    "lat": 34.115307,
    "lng": 2.0965369,
    "phones": ["+213 662 60 36 49"]
  },
  {
    "city": "Ain M'Lila",
    "lat": 36.030663,
    "lng": 6.576838,
    "phones": ["+213 661 21 90 36"]
  },
  {
    "city": "Ain Touta",
    "lat": 35.37188,
    "lng": 5.904076,
    "phones": ["+213 773 79 74 73"]
  },
  {
    "city": "Akbou",
    "lat": 36.535202,
    "lng": 4.605323,
    "phones": ["+213 775 11 09 25"]
  },
  {
    "city": "Annaba",
    "lat": 36.895184,
    "lng": 7.750899,
    "phones": ["+213 780 52 41 14"]
  },
  {
    "city": "Ain Beida",
    "lat": 35.79815,
    "lng": 7.383397,
    "phones": ["+213 550 23 03 94"]
  },
  {
    "city": "Ain Fakroun",
    "lat": 35.971546,
    "lng": 6.873553,
    "phones": ["+213 555 11 93 54"]
  },
  {
    "city": "Ain Kercha",
    "lat": 35.922913,
    "lng": 6.692882,
    "phones": ["+213 770 40 82 37"]
  },
  {
    "city": "Baraki, Alger",
    "lat": 36.6692,
    "lng": 3.0930912,
    "phones": ["+213 557 36 88 78"]
  },
  {
    "city": "Barika",
    "lat": 35.3878,
    "lng": 5.372101,
    "phones": ["+213 660 74 88 97"]
  },
  {
    "city": "Batna",
    "lat": 35.537556,
    "lng": 6.136004,
    "phones": ["+213 773 88 47 67", "+213 551 12 63 61"]
  },
  {
    "city": "Biskra",
    "lat": 34.84508,
    "lng": 5.724549,
    "phones": ["+213 770 74 25 33"]
  },
  {
    "city": "Bou Saada",
    "lat": 35.207497,
    "lng": 4.1725,
    "phones": ["+213 656 28 10 16"]
  },
  {
    "city": "Bechar",
    "lat": 31.628933,
    "lng": -2.200489,
    "phones": ["+213 662 56 03 03"]
  },
  {
    "city": "Bejaia",
    "lat": 36.755695,
    "lng": 5.04152,
    "phones": ["+213 661 66 71 47"]
  },
  {
    "city": "Chechar",
    "lat": 35.03954,
    "lng": 7.00108,
    "phones": ["+213 662 31 48 88"]
  },
  {
    "city": "Collo",
    "lat": 36.98724,
    "lng": 6.559874,
    "phones": ["+213 552 96 63 91"]
  },
  {
    "city": "Constantine",
    "lat": 36.35409,
    "lng": 6.632472,
    "phones": ["+213 770 75 27 86"]
  },
  {
    "city": "Djelfa",
    "lat": 34.663956,
    "lng": 3.26028,
    "phones": ["+213 660 51 09 05"]
  },
  {
    "city": "Echatt",
    "lat": 36.82934,
    "lng": 7.86791,
    "phones": ["+213 675 20 82 04"]
  },
  {
    "city": "El Bayadh",
    "lat": 33.674362,
    "lng": 1.0260338,
    "phones": ["+213 554 68 89 96"]
  },
  {
    "city": "El Omaria",
    "lat": 36.266525,
    "lng": 3.02589,
    "phones": ["+213 780 63 02 64"]
  },
  {
    "city": "Fkirina",
    "lat": 35.660934,
    "lng": 7.295573,
    "phones": ["+213 671 29 37 75"]
  },
  {
    "city": "Ghardaia",
    "lat": 32.49609,
    "lng": 3.6363847,
    "phones": ["+213 699 47 70 66"]
  },
  {
    "city": "Guelma",
    "lat": 36.470222,
    "lng": 7.4128113,
    "phones": ["+213 670 00 92 72"]
  },
  {
    "city": "Jijel",
    "lat": 36.812717,
    "lng": 5.751147,
    "phones": ["+213 556 94 14 08"]
  },
  {
    "city": "Kais",
    "lat": 35.492916,
    "lng": 6.92628,
    "phones": ["+213 790 35 69 29"]
  },
  {
    "city": "Khenchela",
    "lat": 35.425632,
    "lng": 7.155086,
    "phones": ["+213 662 43 28 04"]
  },
  {
    "city": "Khmis miliana",
    "lat": 36.258205,
    "lng": 2.227526,
    "phones": ["+213 790 23 17 15"]
  },
  {
    "city": "Laghouat",
    "lat": 33.819733,
    "lng": 2.864939,
    "phones": ["+213 699 47 70 20"]
  },
  {
    "city": "Mila",
    "lat": 33.819733,
    "lng": 2.864939,
    "phones": ["+213 670 37 67 68"]
  },
  {
    "city": "Mostaganem",
    "lat": 35.931526,
    "lng": 0.1023719,
    "phones": ["+213 541 33 11 12"]
  },
  {
    "city": "N'Gaous",
    "lat": 35.551006,
    "lng": 5.615008,
    "phones": ["+213 775 73 17 35"]
  },
  {
    "city": "Oran",
    "lat": 35.687794,
    "lng": -0.621476,
    "phones": ["+213 770 26 77 28"]
  },
  {
    "city": "Ouargla",
    "lat": 31.959415,
    "lng": 5.324775,
    "phones": ["+213 671 38 45 29"]
  },
  {
    "city": "Oum el Bouaghi",
    "lat": 35.871223,
    "lng": 7.122901,
    "phones": ["+213 661 28 66 90"]
  },
  {
    "city": "Sidi Okba",
    "lat": 34.754745,
    "lng": 5.907103,
    "phones": ["+213 671 20 78 60"]
  },
  {
    "city": "Skikda",
    "lat": 36.870285,
    "lng": 6.895018,
    "phones": ["+213 770 44 17 49"]
  },
  {
    "city": "Sougueur",
    "lat": 35.1889,
    "lng": 1.492147,
    "phones": ["+213 661 49 81 30"]
  },
  {
    "city": "Sedrata",
    "lat": 36.128765,
    "lng": 7.534685,
    "phones": ["+213 550 23 03 94"]
  },
  {
    "city": "Tebessa",
    "lat": 35.415188,
    "lng": 8.133195,
    "phones": ["+213 670 26 98 72"]
  },
  {
    "city": "Tiaret",
    "lat": 35.348,
    "lng": 1.329708,
    "phones": ["+213 782 44 64 97"]
  },
  {
    "city": "Tindouf",
    "lat": 27.680164,
    "lng": -8.131107,
    "phones": ["+213 49 38 22 98", "+213 671 33 12 32"]
  },
  {
    "city": "Tizi Ouzou",
    "lat": 36.70382,
    "lng": 4.038652,
    "phones": ["+213 554 81 78 13"]
  },
  {
    "city": "Tlemcene",
    "lat": 34.8794,
    "lng": -1.3384329,
    "phones": ["+213 661 32 72 21"]
  },
  {
    "city": "Tolga",
    "lat": 34.728302,
    "lng": 5.40033,
    "phones": ["+213 661 37 72 76"]
  },
  {
    "city": "Tounane",
    "lat": 35.03757,
    "lng": -1.893505,
    "phones": ["+213 794 90 46 24"]
  }
]
